City_ID,City,Lat,Lng,Max Temp,Humidity,Cloudiness,Wind Speed,Country,Date
0,atafu village,-8.5421,-172.5159,84.27,77,14,13.85,TK,1683667168
1,olonkinbyen,70.9221,-8.7187,36.75,99,100,9.17,SJ,1683667168
2,kapuskasing,49.4169,-82.4331,66.15,40,9,4.83,CA,1683666907
3,kutum,14.2,24.6667,80.51,14,76,6.4,SD,1683667170
4,puerto natales,-51.7236,-72.4875,41.45,70,0,9.22,CL,1683667087
5,ribadeo,43.5325,-7.0991,50.77,91,4,3.49,ES,1683667171
6,waitangi,-43.9535,-176.5597,60.82,96,100,15.01,NZ,1683667171
7,adamstown,-25.066,-130.1015,71.04,54,87,10.33,PN,1683667173
8,lompoc,34.6391,-120.4579,71.02,67,75,11.01,US,1683667173
9,calheta,32.7167,-17.1833,71.71,74,7,5.01,PT,1683667174
10,kisanga,-7.4362,37.7034,71.87,83,67,1.97,TZ,1683667174
11,port-aux-francais,-49.35,70.2167,40.19,97,99,33.8,TF,1683667174
12,antsiranana,-12.2787,49.2917,76.44,74,0,12.66,MG,1683667174
13,aasiaat,68.7098,-52.8699,29.48,77,100,6.78,GL,1683667175
14,tyukhtet,56.5389,89.3011,35.24,77,45,4.59,RU,1683667175
15,iqaluit,63.7506,-68.5145,29.93,69,20,4.61,CA,1683667175
16,edinburgh of the seven seas,-37.0676,-12.3116,57.49,71,97,23.15,SH,1683667175
17,saint-pierre,-21.3393,55.4781,74.88,73,0,5.75,RE,1683667175
18,sao jose da coroa grande,-8.8978,-35.1478,78.39,83,63,6.93,BR,1683667128
19,chonchi,-42.6128,-73.8092,57.11,95,79,0.25,CL,1683667176
20,longyearbyen,78.2186,15.6401,30.04,80,75,10.36,SJ,1683667176
21,onega,63.9061,38.1404,39.49,83,89,2.64,RU,1683667176
22,tazovsky,67.4667,78.7,12.81,95,100,8.57,RU,1683667176
23,dabhol,17.6,73.1667,81.41,78,100,4.36,IN,1683667175
24,blackmans bay,-43.0167,147.3167,49.73,82,68,9.71,AU,1683667177
25,lihue,21.9789,-159.3672,75.74,84,100,12.66,US,1683667177
26,hawaiian paradise park,19.5933,-154.9731,77.04,89,100,6.91,US,1683667177
27,bethel,41.3712,-73.414,69.42,30,0,10.36,US,1683667177
28,gas city,40.4873,-85.613,73.06,36,0,10.36,US,1683667178
29,saldanha,-33.0117,17.9442,61.05,74,40,9.57,ZA,1683667178
30,rancheria payau,7.8541,123.1598,72.61,92,21,2.21,PH,1683667178
31,prince rupert,54.3161,-130.3201,57.29,61,0,6.91,CA,1683667179
32,xinzhou,38.4092,112.7333,53.55,53,100,0.4,CN,1683667179
33,hermanus,-34.4187,19.2345,59.81,81,77,6.26,ZA,1683667179
34,lysyye gory,51.5506,44.8414,39.94,67,92,8.46,RU,1683667179
35,nambucca heads,-30.65,153.0,57.2,76,1,8.01,AU,1683667179
36,ushuaia,-54.8,-68.3,35.26,69,20,4.61,AR,1683667150
37,morondava,-20.2833,44.2833,74.8,77,28,5.17,MG,1683667180
38,pietermaritzburg,-29.6168,30.3928,59.34,89,96,1.83,ZA,1683667157
39,bilibino,68.0546,166.4372,22.89,91,100,3.29,RU,1683667180
40,grytviken,-54.2811,-36.5092,34.05,92,100,3.04,GS,1683667180
41,oyama,36.3,139.8,56.59,61,0,2.53,JP,1683667181
42,punta arenas,-53.15,-70.9167,42.12,70,40,2.3,CL,1683667159
43,puerto ayora,-0.7393,-90.3518,84.16,93,98,10.0,EC,1683667181
44,albany,42.6001,-73.9662,66.16,29,37,1.99,US,1683667149
45,talnakh,69.4865,88.3972,-11.25,100,96,2.44,RU,1683667182
46,hovd,48.0056,91.6419,43.38,70,79,4.43,MN,1683667182
47,sanya,18.2431,109.505,80.76,89,40,4.47,CN,1683667182
48,mahina,-17.5065,-149.489,85.77,70,40,6.91,PF,1683667182
49,khowai,24.1,91.6333,76.87,76,0,4.63,IN,1683667183
50,swan hill,-35.3378,143.5544,45.43,92,0,6.46,AU,1683667183
51,susuman,62.7833,148.1667,34.43,80,93,3.62,RU,1683667183
52,beniganj,27.2833,80.45,83.12,15,0,7.2,IN,1683667181
53,anadyr,64.75,177.4833,28.9,79,0,4.47,RU,1683667184
54,georgetown,5.4112,100.3354,84.13,84,20,0.0,MY,1683666904
55,salinopolis,-0.6136,-47.3561,80.56,82,70,4.81,BR,1683667184
56,al mindak,20.1588,41.2834,67.6,53,2,1.83,SA,1683667184
57,el jadid,33.2549,-8.506,66.7,91,0,13.89,MA,1683667185
58,whitehorse,60.7161,-135.0538,51.82,33,75,14.97,CA,1683666965
59,santana,-0.0583,-51.1817,82.58,83,75,6.91,BR,1683667185
60,namibe,-15.1961,12.1522,75.27,80,60,6.69,AO,1683667185
61,san patricio,28.017,-97.5169,85.86,90,100,13.6,US,1683667185
62,avarua,-21.2078,-159.775,77.05,94,75,19.57,CK,1683667186
63,brokopondo,4.75,-55.1667,79.81,86,100,8.01,SR,1683667186
64,qaqortoq,60.7167,-46.0333,36.18,88,91,3.69,GL,1683667186
65,cova figueira,14.8905,-24.2934,69.62,81,6,11.48,CV,1683667186
66,saint-denis,48.9167,2.3333,59.16,91,75,6.91,FR,1683667187
67,cabedelo,-6.9811,-34.8339,81.27,78,98,10.45,BR,1683667187
68,isafjordur,66.0755,-23.124,39.09,96,100,5.14,IS,1683667187
69,papatowai,-46.5619,169.4708,47.01,83,100,5.3,NZ,1683667187
70,salalah,17.0151,54.0924,82.49,78,20,4.61,OM,1683667187
71,markala,13.7021,-6.0659,95.88,19,98,8.99,ML,1683667188
72,west island,-12.1568,96.8225,82.38,83,75,19.57,CC,1683667188
73,palmer,42.1584,-72.3287,67.06,25,75,11.5,US,1683667188
74,jamestown,42.097,-79.2353,61.41,37,0,11.5,US,1683666871
75,howrah,22.5892,88.3103,86.0,79,20,9.22,IN,1683667189
76,richards bay,-28.783,32.0377,66.07,88,100,10.07,ZA,1683667189
77,les cayes,18.2,-73.75,84.65,64,11,12.33,HT,1683667189
78,kavieng,-2.5744,150.7967,82.15,79,90,3.87,PG,1683667190
79,kotabumi,-4.8333,104.9,75.11,91,58,3.44,ID,1683667190
80,uturoa,-16.7333,-151.4333,81.59,72,79,4.83,PF,1683667190
81,kodiak,57.79,-152.4072,42.31,100,100,12.66,US,1683667190
82,cidreira,-30.1811,-50.2056,66.33,70,0,8.37,BR,1683667190
83,north bend,43.4065,-124.2243,68.23,61,0,16.11,US,1683667191
84,bokhan,53.153,103.7714,49.6,55,100,3.09,RU,1683667191
85,kenitra,34.261,-6.5802,63.36,88,2,6.69,MA,1683667192
86,idanre,7.1127,5.1159,75.74,86,98,3.24,NG,1683667193
87,klyuchi,52.2667,79.1667,53.24,48,100,11.27,RU,1683667193
88,port mathurin,-19.6833,63.4167,78.48,69,12,15.73,MU,1683667193
89,saipan,15.1355,145.701,81.3,100,0,9.22,MP,1683667194
90,pisco,-13.7,-76.2167,71.65,73,75,17.27,PE,1683667099
91,axim,4.8699,-2.2405,81.91,79,19,6.42,GH,1683667194
92,robore,-18.3333,-59.75,74.53,75,79,2.98,BO,1683667195
93,college,64.8569,-147.8028,52.12,38,100,5.75,US,1683667056
94,chibougamau,49.9168,-74.3659,55.02,21,0,14.97,CA,1683667195
95,bandarbeyla,9.4942,50.8122,82.74,76,100,6.64,SO,1683667195
96,grand island,40.925,-98.342,71.55,56,0,20.71,US,1683667196
97,stony plain,53.5334,-114.0021,67.75,59,40,3.44,CA,1683667058
98,port alfred,-33.5906,26.891,62.94,86,12,7.9,ZA,1683667201
99,la rinconada,37.4873,-5.9826,84.38,34,0,8.05,ES,1683667202
100,zinder,13.8072,8.9881,84.81,7,69,6.71,NE,1683667202
101,stanley,54.868,-1.6985,53.71,83,20,4.61,GB,1683667015
102,tiksi,71.6872,128.8694,31.77,91,70,22.12,RU,1683667202
103,noosa heads,-26.3833,153.15,60.12,73,8,14.43,AU,1683667203
104,margaret river,-33.95,115.0667,61.02,87,100,20.94,AU,1683667203
105,fale old settlement,-9.3852,-171.2468,84.38,75,27,13.71,TK,1683667203
106,westport,41.1415,-73.3579,70.29,32,0,5.75,US,1683666908
107,urangan,-25.3,152.9,60.78,70,24,12.59,AU,1683667204
108,crane,31.3974,-102.3501,93.43,17,9,16.6,US,1683667204
109,egilsstadir,65.2653,-14.3948,46.31,93,100,4.61,IS,1683667205
110,invercargill,-46.4,168.35,47.01,95,47,3.0,NZ,1683667205
111,bikaner,28.0167,73.3,84.87,19,20,8.57,IN,1683667205
112,ciacova,45.5081,21.1286,53.62,71,99,12.8,RO,1683667206
113,wailua homesteads,22.0669,-159.378,75.13,82,100,12.66,US,1683667206
114,bereeda,11.8704,51.0579,82.09,76,70,2.98,SO,1683667206
115,kirakira,-10.4544,161.9205,82.74,79,81,8.34,SB,1683667207
116,colonia,50.9333,6.95,56.97,91,75,9.22,DE,1683667207
117,bataipora,-22.2953,-53.2711,72.7,93,100,3.38,BR,1683667207
118,ilomantsi,62.6716,30.9328,42.17,75,56,5.53,FI,1683667038
119,fort bragg,35.139,-79.006,89.44,33,0,17.27,US,1683667208
120,yelizovo,53.1873,158.3805,41.14,60,0,4.47,RU,1683667208
121,ilulissat,69.2167,-51.1,27.55,84,35,6.76,GL,1683667208
122,nishinoomote,30.7333,131.0,64.38,74,20,4.59,JP,1683667208
123,ozherel'ye,54.7961,38.2672,38.91,67,15,4.25,RU,1683667209
124,sai buri,6.7013,101.6168,79.34,87,100,4.99,TH,1683667209
125,bula,13.4701,123.278,76.14,92,100,2.08,PH,1683667209
126,morant bay,17.8815,-76.4093,91.71,65,98,12.46,JM,1683667209
127,jamaame,0.0697,42.745,79.12,82,46,8.88,SO,1683667210
128,khovd,48.0056,91.6419,43.38,70,79,4.43,MN,1683667210
129,benguela,-12.5763,13.4055,78.24,86,2,4.09,AO,1683667210
130,usinsk,65.9939,57.5281,31.39,97,100,12.64,RU,1683667210
131,burutu,5.3509,5.5076,81.18,82,32,5.57,NG,1683667211
132,maturin,9.75,-63.1767,91.24,46,99,16.11,VE,1683667021
133,cill airne,52.05,-9.5167,51.76,91,100,9.44,IE,1683667211
134,ancud,-41.8697,-73.8203,54.77,90,76,3.13,CL,1683667123
135,sosnovo-ozerskoye,52.5249,111.5418,43.57,42,28,2.98,RU,1683667217
136,yellowknife,62.456,-114.3525,57.72,54,75,8.05,CA,1683667217
137,dryden,49.7833,-92.7503,61.09,63,100,9.22,CA,1683667217
138,minab,27.1467,57.0801,84.74,23,25,1.88,IR,1683667217
139,umm kaddadah,13.6017,26.6876,89.49,11,16,11.23,SD,1683667218
140,geraldton,-28.7667,114.6,63.01,94,40,4.61,AU,1683667218
141,cannonvale,-20.2833,148.7,65.59,63,12,12.24,AU,1683667218
142,moyobamba,-6.05,-76.9667,70.54,87,93,2.26,PE,1683667219
143,hadibu,12.65,54.0333,82.83,69,100,1.81,YE,1683667219
144,amos,48.5669,-78.1162,59.0,28,0,5.99,CA,1683667219
145,jiayuguan,39.8167,98.3,49.84,17,96,8.55,CN,1683667219
146,calatayud,41.3535,-1.6432,55.71,74,33,7.58,ES,1683667219
147,tovarkovskiy,53.6822,38.2092,40.68,66,35,6.08,RU,1683667220
148,cabo san lucas,22.8909,-109.9124,95.31,16,20,18.41,MX,1683667065
149,kopong,-24.4833,25.8833,57.43,77,0,2.3,BW,1683667220
150,smederevska palanka,44.3655,20.9589,47.28,87,95,5.77,RS,1683667220
151,dudinka,69.4058,86.1778,-16.44,100,72,2.57,RU,1683667221
152,port lincoln,-34.7333,135.8667,57.9,74,65,8.34,AU,1683667221
153,utrik,11.2278,169.8474,80.92,82,93,13.65,MH,1683667221
154,piton saint-leu,-21.2196,55.3151,73.47,73,0,5.75,RE,1683667221
155,st. john's,47.5649,-52.7093,40.68,86,75,27.63,CA,1683667221
156,bikenibeu village,1.3673,173.1241,85.96,74,75,4.61,KI,1683667222
157,nuuk,64.1835,-51.7216,32.61,93,100,2.3,GL,1683667222
158,san antonio de pale,-1.4014,5.6325,83.12,78,12,5.48,GQ,1683667222
159,broken hill,-31.95,141.4333,45.21,83,0,8.25,AU,1683667222
160,altai,46.3722,96.2583,30.9,76,87,6.29,MN,1683667223
161,qamdo,31.1667,97.2333,31.57,68,76,5.12,CN,1683667223
162,dalaba,10.7,-12.25,69.22,57,100,3.69,GN,1683667223
163,cuyo,10.8525,121.0086,83.64,77,86,7.63,PH,1683667223
164,zheleznogorsk-ilimskiy,56.5768,104.1217,45.03,87,51,3.02,RU,1683667224
165,timimoun,29.2639,0.231,80.98,12,0,5.75,DZ,1683667224
166,kone,-21.0595,164.8658,71.82,73,35,6.58,NC,1683667224
167,petropavlovsk-kamchatsky,53.0452,158.6483,39.79,60,0,4.47,RU,1683667224
168,witu,-2.3889,40.4382,78.96,85,50,10.36,KE,1683667224
169,kidal,18.4411,1.4078,97.38,9,76,10.07,ML,1683667225
170,pingliang,35.5392,106.6861,49.06,81,100,5.55,CN,1683667225
171,port elizabeth,-33.918,25.5701,64.31,96,20,5.75,ZA,1683667225
172,celestun,20.8667,-90.4,87.89,60,100,14.14,MX,1683667225
173,alo,7.4178,6.7371,83.26,69,96,5.35,NG,1683667226
174,bredasdorp,-34.5322,20.0403,56.98,91,88,2.13,ZA,1683667016
175,laguna,38.421,-121.4238,74.28,41,0,5.75,US,1683667226
176,nar'yan-mar,67.6713,53.087,30.38,88,100,10.04,RU,1683667226
177,purpe,64.4803,76.6897,32.2,98,100,16.89,RU,1683667226
178,iskateley,67.6803,53.1512,30.29,88,100,10.07,RU,1683667227
179,sitka,57.0531,-135.33,51.69,62,20,4.61,US,1683667227
180,tura,25.5198,90.2201,75.6,43,0,5.82,IN,1683667227
181,inhambane,-23.865,35.3833,68.38,87,10,7.54,MZ,1683667227
182,okhotsk,59.3833,143.3,37.83,80,6,0.54,RU,1683667228
183,mahibadhoo,3.7833,72.9667,82.29,80,95,9.93,MV,1683667228
184,pacific grove,36.6177,-121.9166,66.88,72,20,11.5,US,1683667064
185,kugesi,56.029,47.2925,40.66,52,0,2.24,RU,1683667228
186,faya-largeau,17.9257,19.1043,91.49,10,54,9.62,TD,1683667229
187,linton,39.0348,-87.1658,77.97,56,2,10.96,US,1683667229
188,la'ie,21.6477,-157.9253,84.16,66,57,10.0,US,1683667229
189,tobruk,32.0836,23.9764,67.01,65,100,17.9,LY,1683667229
190,sinabang,2.4803,96.3801,80.56,77,97,5.37,ID,1683667096
191,ribeira grande,38.5167,-28.7,63.77,97,100,10.0,PT,1683667230
192,nyurba,63.2842,118.3319,40.82,97,99,7.02,RU,1683667230
193,zhezqazghan,47.7833,67.7667,62.13,43,95,9.69,KZ,1683667230
194,teknaf,20.8624,92.3058,78.93,90,1,3.94,BD,1683667230
195,smithers,54.7804,-127.1743,64.72,29,20,4.61,CA,1683667231
196,karratha,-20.7377,116.8463,72.21,44,84,11.83,AU,1683667231
197,gadzhiyevo,69.2551,33.3362,33.31,99,100,4.63,RU,1683667231
198,beruniy,41.6911,60.7525,62.56,48,0,4.61,UZ,1683667231
199,vuktyl,63.8567,57.3094,32.74,99,100,5.37,RU,1683667232
200,castillos,-34.1667,-53.8333,59.61,59,94,9.91,UY,1683667232
201,nyala,12.05,24.8833,85.17,15,94,3.78,SD,1683667232
202,korla,41.7597,86.1469,58.62,31,0,6.06,CN,1683667232
203,preobrazheniye,42.9019,133.9064,43.32,48,35,6.87,RU,1683667233
204,qui nhon,13.7667,109.2333,77.67,89,100,4.0,VN,1683667233
205,cristalina,-16.7686,-47.6136,66.87,56,100,4.56,BR,1683667233
206,stephenville,32.2207,-98.2023,81.39,61,40,9.22,US,1683667233
207,podporozh'ye,60.9112,34.1706,39.15,67,55,4.16,RU,1683667234
208,flying fish cove,-10.4217,105.6791,80.28,83,75,10.36,CX,1683667234
209,thompson,55.7435,-97.8558,68.16,45,100,9.22,CA,1683667234
210,kingaroy,-26.5333,151.8333,45.97,48,0,3.89,AU,1683667234
211,isangel,-19.55,169.2667,77.11,83,75,2.3,VU,1683667235
212,xinyuan,37.3,99.0,27.91,96,100,1.1,CN,1683667235
213,dorogobuzh,54.915,33.2972,40.35,67,26,4.14,RU,1683667235
214,luganville,-15.5333,167.1667,80.04,75,52,6.33,VU,1683667235
215,nabire,-3.3667,135.4833,76.23,96,100,2.24,ID,1683667236
216,nadi,-17.8,177.4167,78.8,73,20,5.75,FJ,1683667236
217,leesburg,39.1157,-77.5636,68.0,65,100,5.01,US,1683666971
218,aurangabad,19.8833,75.3333,90.07,26,96,7.96,IN,1683667237
219,selfoss,63.9331,-20.9971,49.05,86,73,4.63,IS,1683667237
220,vorgashor,67.5833,63.95,18.46,100,99,3.38,RU,1683667237
221,st. paul,44.9444,-93.0933,69.57,73,100,9.22,US,1683667159
222,aweil,8.7682,27.4002,87.21,36,43,5.1,SS,1683667239
223,kyabe,9.4515,18.9449,90.01,40,100,4.92,TD,1683667239
224,metlili chaamba,32.2667,3.6333,74.34,20,0,4.61,DZ,1683667239
225,hai duong,20.9333,106.3167,78.8,97,98,5.55,VN,1683667240
226,tadine,-21.55,167.8833,74.08,68,98,13.58,NC,1683667240
227,agneaux,49.119,-1.1061,50.41,92,59,14.32,FR,1683667240
228,mossel bay,-34.1831,22.146,55.33,82,15,5.7,ZA,1683667240
229,acapulco de juarez,16.8634,-99.8901,89.42,66,0,13.8,MX,1683667241
230,granja,-3.1203,-40.8261,79.25,81,90,2.64,BR,1683667241
231,abra pampa,-22.7205,-65.697,58.77,11,100,3.06,AR,1683667241
232,bologoye,57.8799,34.1068,43.77,65,98,4.36,RU,1683667241
233,kemise,10.7167,39.8667,67.62,82,92,4.76,ET,1683667242
234,port blair,11.6667,92.75,83.46,78,100,15.93,IN,1683667242
235,kerikeri,-35.2268,173.9474,62.91,93,36,5.99,NZ,1683667090
236,igrim,63.1906,64.4162,41.09,83,100,11.81,RU,1683667242
237,puerto baquerizo moreno,-0.9,-89.6,79.79,89,75,13.8,EC,1683667243
238,wahpeton,46.2652,-96.6059,70.92,94,100,8.05,US,1683667159
239,port-cartier,50.0334,-66.8654,52.02,34,100,13.18,CA,1683667243
240,ulladulla,-35.35,150.4667,48.15,76,0,4.61,AU,1683667243
241,olyokminsk,60.3736,120.4264,38.35,92,32,6.02,RU,1683667244
242,lesnoy,57.6198,63.0784,37.58,43,0,5.3,RU,1683667244
243,sioux city,42.5,-96.4003,77.67,54,20,11.5,US,1683667244
244,mount pearl,47.5166,-52.7813,39.33,85,75,27.63,CA,1683667094
245,tolanaro,-25.0319,46.9987,75.27,88,40,16.11,MG,1683667244
246,jefferson city,38.5767,-92.1735,80.51,41,0,6.91,US,1683667245
247,whakatane,-37.9585,176.9854,66.78,92,32,17.63,NZ,1683667245
248,tangalle,6.024,80.7911,78.08,90,99,11.36,LK,1683667245
249,den burg,53.0542,4.7972,53.94,99,100,14.97,NL,1683667245
250,shush,32.1942,48.2436,81.16,37,69,14.34,IR,1683667245
251,gourcy,13.2167,-2.35,93.49,19,100,5.19,BF,1683667246
252,portland,45.5234,-122.6762,66.61,61,40,4.0,US,1683666699
253,romanovo,52.6182,81.2271,51.82,54,100,8.72,RU,1683667246
254,vila velha,-20.3297,-40.2925,75.15,84,0,2.3,BR,1683667171
255,hithadhoo,-0.6,73.0833,81.97,73,100,7.29,MV,1683667247
256,keflavik,64.0049,-22.5624,48.63,93,75,5.75,IS,1683667247
257,bubaque,11.2833,-15.8333,80.78,79,100,15.12,GW,1683667247
258,cruzeiro do sul,-29.5128,-51.9853,66.07,82,0,1.99,BR,1683667247
259,san jose de guanipa,8.8872,-64.1651,88.14,47,95,14.74,VE,1683667248
260,mitrofanovka,49.9708,39.6939,43.56,63,100,9.6,RU,1683667248
261,karasburg,-28.0167,18.75,65.66,21,0,10.27,NA,1683667248
262,oppdal,62.5943,9.6912,41.61,96,100,11.86,NO,1683667248
263,mount gambier,-37.8333,140.7667,53.56,81,99,3.67,AU,1683667249
264,manta,-0.95,-80.7333,85.78,66,40,10.36,EC,1683667249
265,onguday,50.75,86.15,49.53,73,89,2.04,RU,1683667249
266,leh,34.1667,77.5833,27.66,66,93,7.29,IN,1683667249
267,blackwater,-23.5833,148.8833,49.59,51,0,7.05,AU,1683667250
268,mount isa,-20.7333,139.5,53.37,35,0,8.05,AU,1683667250
269,zeya,53.75,127.2667,38.14,89,100,3.24,RU,1683667250
270,la ronge,55.1001,-105.2842,68.22,29,75,4.61,CA,1683667250
271,la manga del mar menor,37.6413,-0.7165,71.6,84,0,4.0,ES,1683667251
272,port saint john's,-31.6229,29.5448,64.72,89,10,7.49,ZA,1683667251
273,acarau,-2.8856,-40.12,79.9,84,91,9.6,BR,1683667251
274,labytnangi,66.6572,66.4183,17.04,91,57,5.28,RU,1683667251
275,ladario,-19.0047,-57.6017,71.89,94,75,9.22,BR,1683667095
276,touros,-5.1989,-35.4608,80.31,77,19,13.11,BR,1683667252
277,katabu,-4.9333,122.5167,75.54,94,99,1.28,ID,1683667252
278,port shepstone,-30.7414,30.455,65.23,82,32,6.55,ZA,1683667252
279,la passe,45.5549,-0.8967,57.97,74,1,18.5,FR,1683667252
280,fagundes,-7.355,-35.775,73.76,82,99,8.3,BR,1683667253
281,mar del plata,-38.0023,-57.5575,63.09,67,0,6.91,AR,1683667053
282,zaysan,47.4667,84.8667,59.07,37,29,8.5,KZ,1683667253
283,galliano,29.4422,-90.2992,84.2,70,40,6.91,US,1683667101
284,hammerfest,70.6634,23.6821,43.25,75,0,5.75,NO,1683667254
285,berja,36.8469,-2.9497,65.77,50,63,4.07,ES,1683667254
286,ust-nera,64.5667,143.2,29.37,69,99,9.01,RU,1683667254
287,porto murtinho,-21.6989,-57.8825,73.67,83,100,4.29,BR,1683667254
288,north battleford,52.7834,-108.2847,68.09,32,40,10.36,CA,1683667081
289,visby,57.6409,18.296,46.81,61,38,10.36,SE,1683667254
290,fortuna,40.5982,-124.1573,61.93,67,0,16.11,US,1683666989
291,mundemba,4.9479,8.8724,77.14,95,84,2.3,CM,1683667255
292,pul-e khumri,35.9446,68.7151,64.15,25,0,2.39,AF,1683667255
293,duba,27.3513,35.6901,76.42,51,30,5.79,SA,1683667255
294,moultrie,31.1799,-83.7891,88.83,48,20,8.05,US,1683667255
295,ceeldheer,3.8488,47.1806,80.06,84,74,16.24,SO,1683667256
296,sale,34.0389,-6.8166,68.63,94,20,0.0,MA,1683667156
297,sassnitz,54.5167,13.65,51.8,72,6,20.62,DE,1683667256
298,sao joao da barra,-21.6403,-41.0511,77.09,78,91,11.74,BR,1683667256
299,broome,42.2506,-75.833,63.46,38,0,10.36,US,1683667257
300,pucallpa,-8.3791,-74.5539,80.64,69,75,11.5,PE,1683667257
301,togur,58.3631,82.8265,30.42,57,0,3.8,RU,1683667257
302,tuzantla,19.2029,-100.5668,96.78,17,0,6.67,MX,1683667257
303,idri,27.5,13.2667,68.86,37,11,12.06,LY,1683667258
304,washington,47.5001,-120.5015,64.8,41,100,4.43,US,1683667258
305,dunedin,-45.8742,170.5036,47.8,81,100,7.0,NZ,1683667258
306,bel ombre,-4.6167,55.4167,82.24,78,20,6.91,SC,1683667258
307,tsiombe,-25.3,45.4833,71.26,93,99,8.12,MG,1683667258
308,shiyan,32.6475,110.7781,55.53,96,100,1.48,CN,1683667259
309,camapua,-19.5314,-54.0439,77.34,70,100,1.36,BR,1683667259
310,kosonsoy,41.2561,71.5508,57.76,30,0,7.11,UZ,1683667259
311,gorontalo,0.5412,123.0595,75.72,92,100,3.11,ID,1683667261
312,kupang,-10.1667,123.5833,79.38,89,20,14.97,ID,1683667261
313,ramapuram,13.1167,79.2,80.71,81,97,3.2,IN,1683667261
314,itoman,26.1247,127.6694,68.02,73,20,6.91,JP,1683667262
315,alice springs,-23.7,133.8833,31.55,80,0,6.6,AU,1683667262
316,east london,-33.0153,27.9116,63.63,76,0,7.09,ZA,1683667263
317,dyatlovo,53.4631,25.4068,42.57,58,8,6.2,BY,1683667263
318,constantia,44.1833,28.65,45.7,77,13,7.7,RO,1683667252
319,numan,9.4667,12.0333,90.97,31,100,5.14,NG,1683667264
320,camana,-16.6228,-72.7111,71.13,76,25,9.62,PE,1683667264
321,udachny,66.4167,112.4,25.45,73,19,23.11,RU,1683667264
322,bonthe,7.5264,-12.505,83.16,79,99,7.61,SL,1683667264
323,pandan,14.0453,124.1694,79.09,85,100,2.68,PH,1683667265
324,kangaba,11.9333,-8.4167,91.94,27,84,8.16,ML,1683667265
325,keetmanshoop,-26.5833,18.1333,68.83,22,0,10.47,NA,1683667265
326,villa gesell,-37.2639,-56.973,55.06,53,100,8.19,AR,1683667265
327,grootfontein,-19.5667,18.1167,66.11,31,0,3.29,NA,1683667266
328,portage la prairie,49.9728,-98.2926,69.89,53,75,10.36,CA,1683667057
329,extrema,-22.8547,-46.3183,66.0,85,100,1.88,BR,1683667266
330,glencoe,-28.1783,30.147,51.1,88,16,1.74,ZA,1683667266
331,minas de marcona,-15.2119,-75.1103,65.35,71,17,14.74,PE,1683667266
332,newport,51.5877,-2.9984,53.71,89,100,8.66,GB,1683666610
333,ar ruways,24.1103,52.7306,85.19,38,57,11.7,AE,1683667267
334,cadereyta,25.5833,-99.9833,87.48,42,51,6.17,MX,1683667267
335,kasoa,5.533,-0.4224,84.65,79,70,6.38,GH,1683667267
336,kamloops,50.6665,-120.3192,63.59,58,75,4.0,CA,1683667019
337,labrador city,52.9463,-66.9114,31.91,47,100,8.05,CA,1683667267
338,balabac,7.9868,117.0645,81.61,80,77,4.09,PH,1683667268
339,doka,13.5167,35.7667,89.98,9,13,13.44,SD,1683667268
340,sabang,5.8933,95.3214,83.93,71,100,18.72,ID,1683667268
341,quellon,-43.1167,-73.6167,53.85,100,100,0.0,CL,1683667087
342,sur,22.5667,59.5289,86.83,43,48,10.31,OM,1683667268
343,karachi,24.9056,67.0822,78.62,89,0,8.05,PK,1683667269
344,nagqu,31.5,92.0,31.32,53,100,7.61,CN,1683667269
345,alofi,-19.0595,-169.9187,80.49,83,75,11.5,NU,1683667269
346,i-n-salah,27.1935,2.4607,83.08,16,99,15.73,DZ,1683667269
347,la sarre,48.8002,-79.1996,59.09,36,4,5.77,CA,1683667270
348,badger,64.8,-147.5333,52.05,33,75,5.75,US,1683667270
349,hamilton,39.1834,-84.5333,76.91,41,0,11.5,US,1683666710
350,novaya igirma,57.1334,103.9112,46.42,94,80,3.04,RU,1683667270
351,mincivan,39.0294,46.7185,59.68,86,100,1.59,AZ,1683667270
352,solhan,38.9634,41.0293,48.7,73,1,1.83,TR,1683667271
353,zhongshu,24.5167,103.7667,60.93,97,88,3.62,CN,1683667271
354,carnarvon,-24.8667,113.6333,69.35,86,100,8.1,AU,1683667271
355,charcas,23.1333,-101.1167,83.37,10,0,17.16,MX,1683667271
356,quila,24.4228,-107.22,96.66,11,99,13.27,MX,1683667271
357,tarifa,36.0139,-5.607,78.75,77,92,10.96,ES,1683667272
358,solwezi,-12.1688,26.3894,56.34,68,92,3.47,ZM,1683667272
359,newman,37.3138,-121.0208,72.28,36,100,8.99,US,1683667272
360,ugoofaaru,5.6667,73.0,83.57,77,97,9.84,MV,1683667272
361,tingo maria,-9.2895,-76.0088,77.85,71,82,1.63,PE,1683667272
362,essaouira,31.5125,-9.77,70.54,68,0,26.46,MA,1683667010
363,deqen,29.9618,90.7188,39.31,47,78,5.44,CN,1683667278
364,el hadjira,32.6134,5.5126,75.15,29,34,8.75,DZ,1683667278
365,nova sintra,14.8667,-24.7167,68.5,80,1,13.51,CV,1683667278
366,fisterra,42.9049,-9.2629,58.75,72,51,12.24,ES,1683667278
367,lorengau,-2.0226,147.2712,81.73,78,38,2.55,PG,1683667279
368,riberalta,-10.9833,-66.1,79.0,78,75,10.36,BO,1683667279
369,cestos city,5.46,-9.5828,82.35,84,93,10.67,LR,1683667279
370,rongelap,11.1635,166.8941,81.05,82,77,16.13,MH,1683667279
371,isla mujeres,21.2311,-86.731,87.17,69,100,11.27,MX,1683667279
372,vanimo,-2.6741,141.3028,78.55,90,100,3.06,PG,1683667280
373,rabaul,-4.1967,152.1721,80.58,82,71,6.35,PG,1683667280
374,sandnessjoen,66.0217,12.6316,54.64,62,75,3.44,NO,1683667280
375,ochobo,7.183,7.9769,82.8,68,100,5.66,NG,1683667280
376,katsuren-haebaru,26.3369,127.8719,68.02,69,40,8.05,JP,1683667241
377,trairi,-3.2778,-39.2689,79.18,83,57,8.28,BR,1683666991
378,isiolo,0.3546,37.5822,67.68,78,85,9.98,KE,1683667281
379,durango,24.8333,-104.8333,81.68,7,91,22.35,MX,1683667279
380,aitape,-3.1374,142.3475,79.18,88,77,4.32,PG,1683667281
381,poso,-1.3959,120.7524,82.35,68,97,3.44,ID,1683667281
382,vilyuchinsk,52.9306,158.4028,41.27,81,100,3.56,RU,1683667282
383,villa de soto,-30.8552,-64.9995,71.4,49,4,9.01,AR,1683667282
384,lebu,-37.6167,-73.65,56.23,72,99,14.85,CL,1683667282
385,ust'-kut,56.7938,105.7672,46.51,83,73,3.51,RU,1683667282
386,aswan,24.0934,32.907,77.65,18,8,7.83,EG,1683667282
387,queenstown,-31.8976,26.8753,49.53,61,2,2.86,ZA,1683667283
388,ostrov,57.3439,28.3537,40.73,62,96,6.71,RU,1683667283
389,kudahuvadhoo,2.6708,72.8944,81.41,82,71,10.04,MV,1683667284
390,kingston,17.997,-76.7936,91.24,62,20,26.46,JM,1683667284
391,xianyang,34.3378,108.7026,58.24,94,100,4.47,CN,1683667285
392,kruisfontein,-34.0033,24.7314,54.88,91,8,3.62,ZA,1683667285
393,santander jimenez,24.2167,-98.4667,96.48,39,64,9.04,MX,1683667286
394,imperial,33.0334,-115.4175,90.18,7,4,13.67,US,1683667286
395,mammoth lakes,37.6485,-118.9721,52.52,13,0,6.91,US,1683667277
396,sinnar,13.5691,33.5672,89.65,10,50,10.69,SD,1683667286
397,hotan,37.0997,79.9269,56.05,14,8,4.63,CN,1683667287
398,thohoyandou,-22.9456,30.485,61.11,84,50,1.14,ZA,1683667287
399,sharlyk,52.9167,54.75,46.18,59,100,10.13,RU,1683667287
400,tralee,52.2704,-9.7026,51.62,93,99,13.89,IE,1683667287
401,kavaratti,10.5669,72.642,84.51,59,100,7.56,IN,1683667288
402,loa janan,-0.583,117.095,73.85,99,97,2.04,ID,1683667288
403,nadym,65.5333,72.5167,32.16,96,100,12.08,RU,1683667288
404,kailua-kona,19.6406,-155.9956,83.5,72,40,9.22,US,1683667288
405,tindouf,27.6711,-8.1474,95.45,10,1,9.22,DZ,1683667288
406,viedma,-40.8135,-62.9967,57.2,65,91,11.83,AR,1683667232
407,dazhong,33.1997,120.4578,49.75,61,98,2.37,CN,1683667289
408,nurota,40.5614,65.6886,67.82,23,0,4.94,UZ,1683667289
409,saint-francois,46.4154,3.9054,50.95,95,87,8.28,FR,1683666998
410,kosh-agach,50.0,88.6667,40.08,72,100,1.72,RU,1683667289
411,sisimiut,66.9395,-53.6735,34.03,76,100,10.78,GL,1683667289
412,enewetak,11.3474,162.3373,81.52,81,100,15.7,MH,1683667290
413,sumbawanga,-7.9667,31.6167,60.6,94,20,0.0,TZ,1683667290
414,las khorey,11.1595,48.1967,85.15,55,100,4.85,SO,1683667290
415,luderitz,-26.6481,15.1594,62.94,57,0,0.47,NA,1683667290
416,coquimbo,-29.9533,-71.3436,58.73,82,0,11.5,CL,1683667045
417,honggang,46.4667,124.8667,44.69,32,3,7.2,CN,1683667291
418,tostado,-29.232,-61.7692,74.98,44,0,3.18,AR,1683667291
419,balaklava,44.5,33.6,46.38,63,70,7.25,UA,1683667291
420,george town,5.4112,100.3354,84.13,87,20,0.0,MY,1683667272
421,nola,40.922,14.5329,63.93,86,93,2.37,IT,1683667292
422,lautoka,-17.6167,177.4667,78.66,73,20,5.75,FJ,1683667292
423,strelka,58.0728,93.0344,35.22,75,6,5.7,RU,1683667292
424,samsun,41.25,36.3333,52.56,94,75,3.44,TR,1683667292
425,usol'ye,59.4268,56.6808,36.18,74,47,5.86,RU,1683667293
426,gebeit,21.0667,36.3167,71.8,46,18,4.52,SD,1683667293
427,kerman,30.2832,57.0788,69.66,21,75,4.61,IR,1683667235
428,kalemie,-5.9475,29.1947,70.3,83,65,3.49,CD,1683667293
429,yakeshi,49.2833,120.7333,39.15,36,0,2.42,CN,1683667293
430,el porvenir,13.7617,-87.3458,92.53,21,7,7.96,HN,1683667294
431,bamboo flat,11.7,92.7167,83.48,78,100,15.43,IN,1683667294
432,kochenevo,55.0218,82.202,36.79,50,99,8.95,RU,1683667294
433,khandyga,62.6667,135.6,31.26,58,26,5.12,RU,1683667294
434,neiafu,-18.65,-173.9833,83.08,74,20,5.75,TO,1683667294
435,san juan del sur,11.2529,-85.8705,89.82,62,0,4.61,NI,1683667295
436,saint albans,51.75,-0.3333,54.16,95,100,9.71,GB,1683667295
437,calasparra,38.23,-1.6999,65.62,44,68,10.71,ES,1683667295
438,argo,37.6333,22.7333,62.78,84,100,5.08,GR,1683667295
439,khedbrahma,24.0333,73.05,84.65,16,2,2.37,IN,1683667296
440,nassau,40.7507,-73.5829,68.92,41,0,10.36,US,1683667014
441,xining,36.6167,101.7667,38.08,93,100,4.18,CN,1683667296
442,buala,-8.145,159.5921,82.62,81,22,7.9,SB,1683667296
443,palmas,-10.2128,-48.3603,87.67,66,20,4.61,BR,1683667296
444,sheridan,44.8333,-106.9173,72.01,27,0,3.0,US,1683667166
445,ad dabbah,18.05,30.95,82.74,11,100,9.73,SD,1683667297
446,praia da vitoria,38.7333,-27.0667,66.45,88,75,10.76,PT,1683667297
447,ta`u,-14.2336,-169.5144,82.0,77,98,13.51,AS,1683667297
448,antofagasta,-23.65,-70.4,61.88,71,8,7.02,CL,1683667238
449,port douglas,-16.4833,145.4667,66.97,68,40,9.17,AU,1683667297
450,lhokseumawe,5.1801,97.1507,77.77,86,100,3.13,ID,1683667298
451,haparanda,65.8355,24.1368,39.25,95,100,4.38,SE,1683667298
452,miles city,46.4083,-105.8406,72.57,35,0,5.75,US,1683667298
453,oranjemund,-28.55,16.4333,60.64,63,4,2.86,NA,1683667227
454,conception bay south,47.4999,-52.9981,39.92,85,100,22.41,CA,1683667089
455,happy valley-goose bay,53.3168,-60.3315,39.51,45,100,29.93,CA,1683667299
456,labuan,5.2767,115.2417,77.36,88,20,0.0,MY,1683667299
457,mejit,10.2753,170.8646,80.82,84,100,14.88,MH,1683667299
458,luza,60.6308,47.2512,42.84,85,99,4.12,RU,1683667299
459,pandharpur,17.6667,75.3333,88.65,46,100,2.15,IN,1683667299
460,arteche,12.2645,125.4048,77.94,84,100,0.78,PH,1683667300
461,anna regina,7.2644,-58.5077,80.8,76,97,9.19,GY,1683667300
462,arkhangel'sk,64.5401,40.5433,35.26,98,99,3.02,RU,1683667300
463,capilla de guadalupe,20.8333,-102.5833,89.62,13,1,12.46,MX,1683667300
464,constitucion,-35.3333,-72.4167,63.81,44,99,10.25,CL,1683667301
465,murray bridge,-35.1167,139.2667,54.12,86,35,1.59,AU,1683667301
466,terrace,54.5163,-128.6035,66.11,32,0,2.3,CA,1683667301
467,huicungo,-7.2833,-76.8,71.31,99,100,0.43,PE,1683667301
468,orange walk,17.8333,-88.8333,96.22,34,99,11.21,BZ,1683667301
469,malvan,16.0667,73.4667,83.64,79,98,5.39,IN,1683667302
470,tegueste,28.5167,-16.3167,65.16,81,40,10.36,ES,1683667302
471,sault ste. marie,46.5168,-84.3333,64.96,29,0,9.22,CA,1683667163
472,qarazhal,48.0078,70.7903,63.14,31,91,8.37,KZ,1683667302
473,suva,-18.1416,178.4415,76.48,88,20,4.61,FJ,1683667303
474,brookings,44.3114,-96.7984,76.05,46,40,8.05,US,1683667078
475,jurm,36.8648,70.8342,56.01,35,0,3.0,AF,1683667303
476,zhaoyuan,37.3592,120.3964,59.9,25,100,3.42,CN,1683667303
477,kampene,-3.6,26.6667,69.62,98,99,2.17,CD,1683667303
478,pyay,18.8167,95.2167,82.99,58,78,3.22,MM,1683667304
479,dongola,19.1667,30.4833,81.21,14,59,10.8,SD,1683667304
480,quartz hill,34.6453,-118.2181,71.69,49,0,26.46,US,1683667304
481,pangody,65.85,74.4859,30.83,98,100,7.92,RU,1683667304
482,siwa oasis,29.2041,25.5195,75.97,27,2,14.09,EG,1683667304
483,gazli,40.1333,63.45,75.88,15,2,7.58,UZ,1683667305
484,chengde,40.9725,117.9361,56.28,41,100,1.43,CN,1683667305
485,tofol,5.3248,163.0078,83.14,80,99,13.73,FM,1683667305
486,ola,59.5833,151.2833,35.31,85,89,2.95,RU,1683667305
487,margate,51.3813,1.3862,56.3,88,90,9.35,GB,1683667259
488,pariaman,-0.619,100.12,75.25,79,100,3.89,ID,1683667306
489,yaren,-0.5472,166.916,83.75,78,82,17.02,NR,1683667306
490,bayji,34.9311,43.487,77.14,24,1,8.1,IQ,1683667307
491,longboat key,27.4125,-82.659,88.25,56,0,14.97,US,1683667307
492,darwin,-12.4611,130.8418,71.58,41,0,14.97,AU,1683667229
493,kastsyukowka,52.5387,30.9173,41.0,70,0,6.71,BY,1683667308
494,cole harbour,44.6724,-63.4751,50.94,49,75,18.99,CA,1683667308
495,hobyo,5.3505,48.5268,81.88,80,96,19.6,SO,1683667308
496,porto novo,6.4965,2.6036,85.82,80,81,7.2,BJ,1683667309
497,fada,9.5667,8.3,79.34,45,93,3.2,NG,1683667309
498,buka,40.8108,69.1986,66.47,34,32,5.57,UZ,1683667309
499,vennesla,58.2694,7.9741,49.42,91,75,12.66,NO,1683667309
500,weihai,37.5017,122.1136,57.43,49,100,2.08,CN,1683667310
501,silapathar,26.206,93.8095,71.53,69,0,3.65,IN,1683667310
502,afaahiti,-17.75,-149.2833,84.07,73,91,5.7,PF,1683667310
503,ito,34.9667,139.0833,55.56,68,0,4.74,JP,1683667310
504,kavarna,43.4333,28.3333,45.43,85,99,8.03,BG,1683667311
505,vernon,50.2581,-119.2691,69.3,53,92,8.01,CA,1683667237
506,verkhniy baskunchak,48.2256,46.7217,44.89,71,100,7.14,RU,1683667311
507,cartagena,10.3997,-75.5144,87.42,74,40,14.97,CO,1683667232
508,remire-montjoly,4.9167,-52.2667,78.84,83,100,4.61,GF,1683667311
509,sanaa,15.3547,44.2067,68.36,40,4,2.62,YE,1683667312
510,emerald,-23.5333,148.1667,50.34,51,0,10.85,AU,1683667312
511,pointe-noire,-4.7761,11.8635,82.47,89,75,3.44,CG,1683667312
512,yashkul',46.1711,45.3435,52.88,65,87,6.69,RU,1683667312
513,callao,-12.0667,-77.15,71.73,83,100,6.91,PE,1683667313
514,pelplin,53.9283,18.6977,45.52,76,1,8.12,PL,1683667313
515,pont rouge,48.8833,-72.0825,57.31,25,26,10.33,CA,1683667313
516,mezhdurechenskiy,59.6,65.9333,38.1,49,19,8.79,RU,1683667313
517,adrar,20.5022,-10.0711,90.23,19,87,8.21,MR,1683667313
518,bam,29.106,58.357,85.8,12,96,7.54,IR,1683667314
519,aldama,22.9167,-98.0667,97.5,40,1,11.86,MX,1683667314
520,mana,5.6592,-53.7767,79.79,79,81,9.95,GF,1683667314
521,hasaki,35.7333,140.8333,56.21,68,0,10.8,JP,1683667314
522,sena madureira,-9.0656,-68.6569,80.13,84,95,1.63,BR,1683667315
523,saint croix,17.7397,-64.7388,82.96,76,40,12.66,VI,1683667315
524,nosy varika,-20.5833,48.5333,70.66,93,50,5.1,MG,1683667315
525,iquitos,-3.7481,-73.2472,77.04,94,100,4.61,PE,1683667315
526,namsos,64.4662,11.4957,55.45,58,100,8.05,NO,1683667315
527,catia la mar,10.6038,-67.0303,80.8,74,100,13.8,VE,1683667316
528,tarawa,1.419,172.984,86.09,74,75,4.61,KI,1683667316
529,vorkuta,67.5,64.0,19.63,100,99,3.11,RU,1683667316
530,oban,56.4127,-5.4706,48.38,82,15,2.86,GB,1683667316
531,tselinnoye,53.0833,85.6667,49.21,75,99,8.66,RU,1683667317
532,singkil,-7.9855,111.4161,76.21,96,100,3.78,ID,1683667317
533,pathein,16.7833,94.7333,80.78,82,65,3.38,MM,1683667317
534,yeniseysk,58.4497,92.1703,32.77,77,8,5.26,RU,1683667317
535,atherton,53.5237,-2.4935,53.89,86,99,4.0,GB,1683667318
536,wyszkow,52.5928,21.4584,52.14,72,6,8.03,PL,1683667318
537,nago,26.5881,127.9761,66.45,74,1,8.05,JP,1683667318
538,ruidoso,33.3317,-105.673,80.62,8,0,13.8,US,1683667318
539,nouadhibou,20.931,-17.0347,66.18,88,75,17.27,MR,1683667319
540,kuanda,56.3161,116.0806,39.76,85,45,1.66,RU,1683667319
541,borba,-4.3878,-59.5939,79.43,93,86,3.44,BR,1683667319
542,igarka,67.4667,86.5833,0.46,98,15,2.86,RU,1683667319
543,port alberni,49.2413,-124.8028,67.93,45,86,4.0,CA,1683667319
544,peace river,56.2501,-117.286,70.11,34,75,5.75,CA,1683667320
545,nanding,36.7483,118.0558,64.11,24,100,0.29,CN,1683667320
546,polyarnyy,69.1989,33.4478,33.76,98,100,4.88,RU,1683667320
547,bishnah,32.6167,74.8667,72.68,40,0,6.2,IN,1683667321
548,darhan,49.4867,105.9228,52.95,74,100,6.96,MN,1683667321
549,hillsboro,45.5229,-122.9898,65.98,60,75,4.61,US,1683667321
